     2.11           OBSERVATION DATA    M (MIXED)           RINEX VERSION / TYPE
SIMOBS              X                   20200731 063149 UTC PGM / RUN BY / DATE 
SIMULATED OBS DATA                                          COMMENT             
From Mapoet.Niphy                                           COMMENT             
SHAO                                                        MARKER NAME         
                                                            MARKER NUMBER       
                                                            OBSERVER / AGENCY   
                                                            REC # / TYPE / VERS 
                                                            ANT # / TYPE        
 -2646643.2612  4584120.5979  3546465.5763                  APPROX POSITION XYZ 
        0.0000        0.0000        0.0000                  ANTENNA: DELTA H/E/N
     1     1                                                WAVELENGTH FACT L1/2
     5    L1    L2    P1    P2    S1                        # / TYPES OF OBSERV 
  2012     1     1     0     0    0.0000000     GPS         TIME OF FIRST OBS   
  2012     1     2     0     0    0.0000000     GPS         TIME OF LAST OBS    
                                                            END OF HEADER       
 12  1  1  0  0  0.0000000  0 11G 1G 2G 5G 8G 9G12G18G20G21G28G29
         0.347           0.052    21358615.344    21358618.649          12.500  
         0.004           0.784    21358584.059    21358587.519          12.250  
         0.434           0.437    23900610.787    23900616.919          11.750  
         0.463           0.499    25005347.929    25005357.665          11.000  
         0.739           0.861    22884744.360    22884749.090          11.000  
         0.081           0.063    22530006.759    22530011.902          12.000  
         0.375           0.468    21938185.870    21938189.511          12.250  
         0.556           0.946    25493338.860    25493351.514           9.750  
         0.907           0.250    21373500.733    21373504.169          12.500  
         0.921           0.449    25475691.234    25475698.951           9.500  
         0.600           0.046    20629582.878    20629585.500          13.000  
 12  1  1  0  0 30.0000000  0 10G 1G 2G 5G 8G 9G12G18G21G28G29
     68530.345       53399.972    21371656.104    21371659.234          12.250  
     68529.320       53400.159    21371624.490    21371628.374          12.250  
    -98664.239      -76881.098    23881835.528    23881841.785          10.750  
    100507.053       78317.025    25024474.017    25024484.803          10.250  
     95700.943       74572.325    22902955.294    22902960.971          11.250  
     87740.551       68369.141    22546703.918    22546708.881          12.000  
    -51287.967      -39964.467    21928425.813    21928429.518          12.250  
    -35935.747      -28002.348    21366662.623    21366665.425          12.500  
    -37957.837      -29577.871    25468468.557    25468473.934          10.000  
    -35038.289      -27302.990    20622915.229    20622917.988          12.750  
 12  1  1  0  1  0.0000000  0 10G 1G 2G 5G 8G 9G12G18G21G28G29
    137310.194      106994.605    21384744.627    21384747.780          12.250  
    137308.467      106994.232    21384712.919    21384716.495          12.250  
   -197134.308     -153610.945    23863097.547    23863103.443          10.750  
    200864.647      156517.484    25043569.659    25043581.101          10.250  
    191603.969      149301.844    22921204.988    22921211.115          11.000  
    175586.838      136820.674    22563420.316    22563425.614          12.250  
   -102491.902      -79863.628    21918682.060    21918685.927          12.250  
    -71335.248      -55586.369    21359926.076    21359929.203          12.250  
    -75508.757      -58838.373    25461323.325    25461329.311          10.000  
    -69631.278      -54258.579    20616332.182    20616335.183          12.500  
 12  1  1  0  1 30.0000000  0 10G 1G 2G 5G 8G 9G12G18G21G28G29
    206337.688      160782.206    21397880.105    21397883.413          12.250  
    206335.263      160781.297    21397848.403    21397851.840          12.250  
   -295408.449     -230188.104    23844396.344    23844402.096          11.000  
    301070.710      234599.915    25062639.491    25062651.755          10.500  
    287706.293      224186.615    22939492.603    22939498.869          11.000  
    263537.324      205353.408    22580156.894    22580161.920          12.000  
   -153611.075     -119696.758    21908954.463    21908958.156          12.000  
   -106195.874      -82750.492    21353292.243    21353295.559          12.500  
   -112650.943      -87780.394    25454254.742    25454260.923          10.000  
   -103776.413      -80865.203    20609834.461    20609837.295          12.500  
 12  1  1  0  2  0.0000000  0 10G 1G 2G 5G 8G 9G12G18G21G28G29
    275610.666      214761.078    21411062.506    21411065.558          12.250  
    275607.569      214759.639    21411030.279    21411034.300          12.250  
   -393485.327     -306611.589    23825733.214    23825738.458          10.750  
    401122.670      312562.330    25081679.124    25081688.911          10.250  
    384004.358      299223.926    22957817.456    22957823.414          11.250  
    351590.396      273966.094    22596912.423    22596917.985          11.750  
   -204645.147     -159463.574    21899242.994    21899246.693          12.250  
   -140515.954     -109493.410    21346761.117    21346765.003          12.500  
   -149383.493     -116403.239    25447266.248    25447270.925          10.250  
   -137471.780     -107121.336    20603422.512    20603425.392          12.750  
 12  1  1  0  2 30.0000000  0  9G 1G 2G 5G 9G12G18G21G28G29
    345126.933      268929.524    21424290.514    21424294.198          12.250  
    345123.161      268927.570    21424258.705    21424262.840          12.250  
   -491363.656     -382880.387    23807107.300    23807113.392          11.000  
    480494.643      374410.982    22976179.859    22976184.875          11.250  
    439744.418      342657.420    22613687.776    22613693.113          11.750  
   -255593.750     -199163.781    21889547.961    21889551.812          12.000  
   -174293.811     -135813.828    21340333.542    21340337.142          12.250  
   -185705.780     -144706.299    25440353.745    25440359.217          10.250  
   -170715.427     -133025.484    20597096.437    20597099.358          12.500  
 12  1  1  0  3  0.0000000  0  9G 1G 2G 5G 9G12G18G21G28G29
    414884.321      323285.863    21437565.315    21437568.657          12.500  
    414879.882      323283.363    21437532.903    21437537.038          12.250  
   -589042.153     -458993.454    23788519.562    23788525.671          11.000  
    577173.516      449745.035    22994576.940    22994582.442          11.000  
    527997.823      411426.173    22630481.431    22630487.285          11.750  
   -306456.530     -238797.131    21879869.664    21879872.946          12.250  
   -207527.837     -161710.469    21334009.200    21334012.844          12.500  
   -221616.774     -172688.979    25433521.184    25433525.140          10.500  
   -203505.410     -158576.145    20590856.729    20590859.404          12.500  
 12  1  1  0  3 30.0000000  0  9G 1G 2G 5G 9G12G18G21G28G29
    484880.659      377828.388    21450885.092    21450888.287          12.500  
    484875.535      377825.359    21450852.767    21450856.967          12.250  
   -686519.577     -534949.820    23769970.610    23769977.289          10.750  
    674037.516      525223.317    23013009.301    23013015.083          11.250  
    616348.975      480271.090    22647294.484    22647300.233          11.750  
   -357233.117     -278363.300    21870206.683    21870210.328          12.250  
   -240216.419     -187182.083    21327788.954    21327792.589          12.500  
   -257115.775     -200350.577    25426765.298    25426770.071          10.250  
   -235839.825     -183771.810    20584703.753    20584706.420          12.500  
 12  1  1  0  4  0.0000000  0  9G 1G 2G 5G 9G12G18G21G28G29
    555113.749      432555.404    21464250.061    21464253.477          12.250  
    555107.950      432551.854    21464217.395    21464221.875          12.500  
   -783794.609     -610748.497    23751459.737    23751466.542          10.750  
    771083.049      600843.062    23031477.046    23031482.035          11.000  
    704796.276      549190.971    22664126.074    22664131.472          12.000  
   -407923.121     -317862.003    21860560.640    21860564.431          12.250  
   -272357.929     -212227.420    21321672.309    21321676.438          12.500  
   -292202.105     -227690.677    25420089.698    25420094.480          10.500  
   -267716.783     -208611.020    20578637.733    20578640.468          12.500  
 12  1  1  0  4 30.0000000  0  9G 1G 2G 5G 9G12G18G21G28G29
    625581.445      487465.227    21477659.382    21477663.398          12.250  
    625574.978      487461.164    21477627.251    21477630.933          12.500  
   -880865.966     -686388.463    23732987.573    23732993.561          11.250  
    868306.579      676601.513    23049978.162    23049983.297          11.750  
    793338.179      618184.538    22680975.279    22680980.444          12.000  
   -458526.154     -357292.919    21850931.331    21850934.710          12.250  
   -303950.808     -236845.261    21315660.688    21315664.157          12.500  
   -326874.953     -254708.464    25413490.578    25413496.656          10.500  
   -299134.385     -233092.284    20572659.147    20572661.817          12.500  
 12  1  1  0  5  0.0000000  0  9G 1G 2G 5G 9G12G18G21G28G29
    696281.586      542556.167    21491113.226    21491117.729          12.000  
    696274.469      542551.627    21491081.477    21491084.767          12.500  
   -977732.421     -761868.731    23714554.475    23714560.134          11.500  
    965704.568      752495.902    23068512.421    23068517.768          12.000  
    881973.109      687250.575    22697841.634    22697847.095          12.000  
   -509041.802     -396655.774    21841318.228    21841321.770          12.250  
   -334993.532     -261034.407    21309753.508    21309757.039          12.250  
   -361133.483     -281403.482    25406972.572    25406975.592          10.000  
   -330090.771     -257214.150    20566768.358    20566771.311          12.500  
 12  1  1  0  5 30.0000000  0  9G 1G 2G 5G 9G12G18G21G28G29
    767212.027      597826.558    21504611.218    21504615.030          12.250  
    767204.222      597821.516    21504578.554    21504582.212          12.500  
  -1074392.685     -837188.325    23696160.841    23696167.174          11.500  
   1063273.476      828523.497    23087078.918    23087084.385          11.750  
    970699.505      756387.910    22714725.956    22714731.212          11.750  
   -559469.677     -435950.230    21831722.337    21831725.951          12.250  
   -365484.560     -284793.641    21303951.306    21303954.809          12.500  
   -394976.987     -307775.122    25400532.510    25400535.631          10.000  
   -360584.063     -280975.183    20560965.803    20560968.633          12.750  
 12  1  1  0  6  0.0000000  0  9G 1G 2G 5G 9G12G18G21G28G29
    838370.583      653274.704    21518152.206    21518155.741          12.500  
    838362.151      653269.142    21518119.528    21518123.312          12.500  
  -1170845.510     -912346.321    23677805.723    23677812.619          11.250  
   1161009.807      904681.505    23105677.887    23105683.662          11.250  
   1059515.818      825595.298    22731627.188    22731632.955          12.000  
   -609809.400     -475175.974    21822142.830    21822146.689          12.000  
   -395422.393     -308121.823    21298253.945    21298257.654          12.250  
   -428404.890     -333822.840    25394171.210    25394175.040          10.000  
   -390612.422     -304373.922    20555251.436    20555254.444          12.500  
 12  1  1  0  6 30.0000000  0  9G 1G 2G 5G 9G12G18G21G28G29
    909755.097      708898.959    21531736.368    21531739.829          12.500  
    909746.049      708892.887    21531703.468    21531707.285          12.250  
  -1267089.649     -987341.704    23659491.009    23659497.494          11.500  
   1258909.980      980967.191    23124307.815    23124313.986          11.250  
   1148420.459      894871.542    22748545.263    22748550.873          11.750  
   -660060.521     -514332.683    21812580.738    21812584.167          12.000  
   -424805.578     -331017.788    21292662.614    21292665.972          12.500  
   -461416.319     -359546.160    25387887.706    25387893.638           9.750  
   -420174.018     -327408.945    20549626.098    20549628.799          12.500  
 12  1  1  0  7  0.0000000  0  9G 1G 2G 5G 9G12G18G21G28G29
    981363.474      764697.626    21545362.985    21545366.608          12.500  
    981353.791      764691.041    21545330.129    21545333.751          12.250  
  -1363123.894    -1062173.538    23641216.398    23641222.022          11.500  
   1356970.460     1057377.826    23142968.343    23142974.074          11.250  
   1237411.960      964215.442    22765479.770    22765485.284          11.750  
   -710222.619     -553420.042    21803035.543    21803038.585          12.000  
   -453632.629     -353480.438    21287176.888    21287180.461          12.500  
   -494010.813     -384944.473    25381685.610    25381690.159          10.500  
   -449267.014     -350078.828    20544089.735    20544092.680          12.500  
 12  1  1  0  7 30.0000000  0  9G 1G 2G 5G 9G12G18G21G28G29
   1053193.574      820669.037    21559032.126    21559035.396          12.500  
   1053183.228      820661.965    21558998.554    21559002.654          12.250  
  -1458946.993    -1136840.845    23622981.694    23622987.962          11.250  
   1455187.748     1133910.646    23161658.108    23161664.332          11.250  
   1326488.776     1033625.800    22782430.990    22782436.534          11.750  
   -760295.250     -592437.677    21793506.669    21793510.408          12.000  
   -481902.124     -375508.615    21281797.266    21281800.888          12.500  
   -526187.722     -410017.384    25375563.201    25375567.849          11.250  
   -477889.598     -372382.153    20538643.142    20538646.158          12.250  
 12  1  1  0  8  0.0000000  0  9G 1G 2G 5G 9G12G18G21G28G29
   1125243.204      876811.518    21572742.574    21572746.467          12.250  
   1125232.230      876803.964    21572708.914    21572712.884          12.250  
  -1554557.787    -1211342.695    23604787.464    23604793.731          11.250  
   1553558.315     1210562.883    23180377.784    23180383.825          11.500  
   1415649.343     1103101.462    22799397.606    22799402.712          12.000  
   -810278.028     -631385.288    21783995.318    21783998.947          12.250  
   -509612.653     -397101.254    21276524.331    21276527.820          12.500  
   -557946.128     -434764.335    25369519.225    25369524.349          10.500  
   -506039.982     -394317.513    20533286.517    20533289.430          12.750  
 12  1  1  0  8 30.0000000  0  9G 1G 2G 5G 9G12G18G21G28G29
   1197510.275      933123.456    21586494.571    21586498.102          12.500  
   1197498.680      933115.403    21586460.867    21586465.011          12.250  
  -1649954.966    -1285678.072    23586634.292    23586640.157          10.750  
   1652078.647     1287331.791    23199126.079    23199132.049          11.250  
   1504892.221     1172641.243    22816380.446    22816385.293          11.750  
   -860170.422     -670262.494    21774500.976    21774504.571          12.250  
   -536762.865     -418257.267    21271358.155    21271361.331          12.500  
   -589285.674     -459184.756    25363556.616    25363561.461          10.250  
   -533716.378     -415883.566    20528019.940    20528022.557          12.750  
 12  1  1  0  9  0.0000000  0  9G 1G 2G 5G 9G12G18G21G28G29
   1269992.674      989603.147    21600287.625    21600291.342          12.500  
   1269980.445      989594.613    21600254.036    21600257.599          12.000  
  -1745137.343    -1359846.113    23568521.265    23568527.051          10.750  
   1750745.261     1364214.679    23217901.507    23217907.757          11.000  
   1594215.854     1242243.973    22833377.837    22833383.175          11.500  
   -909972.038     -709068.943    21765023.775    21765027.710          12.250  
   -563351.354     -438975.565    21266298.568    21266301.498          12.250  
   -620205.654     -483278.340    25357673.042    25357678.503          10.250  
   -560917.014     -437078.897    20522843.812    20522846.531          12.750  
 12  1  1  0  9 30.0000000  0  9G 1G 2G 5G 9G12G18G21G28G29
   1342688.243     1046248.982    21614121.258    21614125.279          12.500  
   1342675.396     1046239.959    21614087.694    21614091.146          12.250  
  -1840103.766    -1433845.882    23550449.766    23550455.761          10.750  
   1849554.524     1441208.776    23236704.195    23236710.403          11.000  
   1683618.792     1311908.453    22850391.016    22850396.512          11.500  
   -959682.396     -747804.292    21755564.474    21755568.050          12.500  
   -589376.806     -459255.148    21261345.875    21261349.257          12.000  
   -650705.486     -507044.423    25351869.092    25351874.552           9.500  
   -587640.148     -457902.133    20517758.537    20517761.336          12.750  
 12  1  1  0 10  0.0000000  0  9G 1G 2G 5G 9G12G18G21G28G29
   1415594.889     1103059.283    21627994.528    21627999.034          12.250  
   1415581.443     1103049.770    21627961.861    21627964.790          12.000  
  -1934853.008    -1507676.416    23532419.407    23532425.354          11.250  
   1948503.055     1518311.340    23255533.659    23255539.543          11.500  
   1773099.548     1381633.595    22867418.512    22867424.448          11.500  
  -1009301.037     -786468.180    21746122.257    21746125.829          12.500  
   -614837.921     -479094.960    21256500.635    21256504.198          12.250  
   -680784.566     -530482.729    25346144.016    25346150.557           9.500  
   -613884.043     -478351.935    20512764.329    20512767.367          12.500  
 12  1  1  0 10 30.0000000  0  9G 1G 2G 5G 9G12G18G21G28G29
   1488710.505     1160032.417    21641908.256    21641912.309          12.000  
   1488696.437     1160022.442    21641875.139    21641878.251          12.250  
  -2029383.900    -1581336.777    23514430.758    23514436.751          11.250  
   2047587.292     1595519.668    23274389.072    23274395.039          11.250  
   1862656.622     1451418.188    22884460.414    22884466.093          11.750  
  -1058827.472     -825060.202    21736697.757    21736701.279          12.250  
   -639733.380     -498494.037    21251762.967    21251766.694          12.250  
   -710442.409     -553592.736    25340499.774    25340505.437           9.500  
   -639646.975     -498426.950    20507861.824    20507864.823          12.750  
 12  1  1  0 11  0.0000000  0  9G 1G 2G 5G 9G12G18G21G28G29
   1562032.985     1217166.734    21655861.129    21655865.364          12.000  
   1562018.307     1217156.302    21655827.678    21655831.163          12.250  
  -2123695.219    -1654826.074    23496484.341    23496489.839          11.250  
   2146803.727     1672831.018    23293269.147    23293275.270          11.750  
   1952288.538     1521261.126    22901516.550    22901522.932          12.250  
  -1108261.229     -863580.018    21727290.798    21727294.398          12.500  
   -664061.945     -517451.376    21247133.467    21247137.358          12.250  
   -739678.406     -576374.152    25334936.067    25334942.378           9.750  
   -664927.228     -518125.859    20503051.215    20503054.120          12.750  
 12  1  1  0 11 30.0000000  0  9G 1G 2G 5G 9G12G18G21G28G29
   1635560.223     1274460.603    21669852.992    21669857.002          12.000  
   1635544.944     1274449.707    21669819.214    21669822.824          12.000  
  -2217785.870    -1728143.386    23478579.394    23478585.567          11.000  
   2246148.873     1750242.672    23312174.070    23312180.100          11.000  
   2041993.886     1591161.274    22918587.677    22918593.249          12.000  
  -1157601.810     -902027.218    21717901.693    21717905.246          12.500  
   -687822.365     -535965.982    21242612.167    21242616.060          12.500  
   -768492.146     -598826.472    25329454.428    25329460.580          10.500  
   -689723.105     -537447.333    20498332.530    20498335.869          12.250  
 12  1  1  0 12  0.0000000  0  9G 1G 2G 5G 9G12G18G21G28G29
   1709290.136     1331912.402    21683883.187    21683887.809          12.250  
   1709274.256     1331901.047    21683849.338    21683853.225          12.000  
  -2311654.607    -1801287.798    23460716.850    23460722.532          11.500  
   2345619.200     1827751.885    23331102.476    23331109.349          11.500  
   2131771.205     1661117.523    22935671.803    22935676.881          12.000  
  -1206848.716     -940401.422    21708530.630    21708533.778          12.500  
   -711013.453     -554036.972    21238199.270    21238203.167          12.500  
   -796883.015     -620949.274    25324051.823    25324057.417          11.250  
   -714032.924     -556390.062    20493706.740    20493709.631          12.500  
 12  1  1  0 12 30.0000000  0  9G 1G 2G 5G 9G12G18G21G28G29
   1783220.621     1389520.498    21697951.762    21697956.236          12.500  
   1783204.175     1389508.693    21697917.619    21697921.506          12.000  
  -2405300.330    -1874258.451    23442896.294    23442902.519          11.500  
   2445211.277     1905355.938    23350054.849    23350060.752          11.500  
   2221619.052     1731128.695    22952769.598    22952774.792          11.500  
  -1256001.443     -978702.244    21699176.901    21699180.111          12.500  
   -733633.993     -571663.371    21233894.586    21233898.551          12.750  
   -824850.581     -642742.241    25318729.331    25318736.051          11.250  
   -737855.015     -574952.745    20489173.771    20489176.443          12.500  
 12  1  1  0 13  0.0000000  0  9G 1G 2G 5G 9G12G18G21G28G29
   1857349.635     1447283.269    21712058.115    21712062.408          12.000  
   1857332.580     1447271.006    21712023.752    21712027.905          12.000  
  -2498721.833    -1947054.371    23425118.567    23425125.086          11.500  
   2544921.598     1983052.128    23369029.516    23369035.087          11.250  
   2311536.006     1801193.708    22969880.070    22969885.638          11.750  
  -1305059.458    -1016929.277    21689841.309    21689844.807          12.500  
   -755682.824     -588844.288    21229699.032    21229702.642          12.250  
   -852394.392     -664205.042    25313488.141    25313493.605          10.750  
   -761187.719     -593134.120    20484733.947    20484736.644          12.750  
 12  1  1  0 13 30.0000000  0  9G 1G 2G 5G 9G12G18G21G28G29
   1931675.060     1505199.108    21726201.897    21726206.180          12.250  
   1931657.439     1505186.374    21726167.898    21726171.969          12.000  
  -2591918.015    -2019674.706    23407383.706    23407390.019          11.750  
   2644746.671     2060837.729    23388025.587    23388032.509          11.250  
   2401520.619     1871311.460    22987003.221    22987009.644          11.500  
  -1354022.287    -1055082.117    21680523.692    21680527.408          12.250  
   -777158.810     -605578.809    21225612.041    21225615.390          12.500  
   -879513.937     -685337.208    25308326.104    25308333.204          10.000  
   -784029.437     -610932.875    20480387.095    20480390.078          12.500  
 12  1  1  0 14  0.0000000  0  9G 1G 2G 5G 9G12G18G21G28G29
   2006194.860     1563266.397    21740382.339    21740386.714          12.250  
   2006176.634     1563253.211    21740348.379    21740352.293          12.000  
  -2684887.735    -2092118.592    23389691.944    23389697.600          11.750  
   2744683.064     2138710.025    23407042.978    23407049.605          11.250  
   2491571.543     1941480.869    23004139.282    23004146.088          11.750  
  -1402889.344    -1093160.347    21671224.617    21671228.342          12.250  
   -798060.815     -621866.106    21221634.397    21221638.246          12.250  
   -906208.838     -706138.490    25303245.994    25303253.443          10.250  
   -806378.537     -628347.771    20476134.043    20476137.142          12.750  
 12  1  1  0 14 30.0000000  0  9G 1G 2G 5G 9G12G18G21G28G29
   2080906.938     1621483.533    21754599.826    21754604.195          12.250  
   2080888.146     1621469.873    21754565.465    21754569.602          12.000  
  -2777629.862    -2164385.113    23372043.947    23372049.108          11.750  
   2844727.236     2216666.362    23426080.485    23426087.553          10.750  
   2581687.296     2011700.798    23021288.049    23021294.173          12.000  
  -1451660.103    -1131163.547    21661944.141    21661947.882          12.500  
   -818387.774     -637705.305    21217766.511    21217770.100          12.250  
   -932478.649     -726608.548    25298246.511    25298254.126          10.750  
   -828233.415     -645377.562    20471975.288    20471978.209          12.750  
 12  1  1  0 15  0.0000000  0  9G 1G 2G 5G 9G12G18G21G28G29
   2155809.249     1679848.896    21768853.168    21768857.747          12.250  
   2155789.892     1679834.798    21768818.611    21768823.015          12.250  
  -2870143.263    -2236473.425    23354439.293    23354444.498          11.500  
   2944875.726     2294703.995    23445137.550    23445145.311          10.750  
   2671866.524     2081970.203    23038448.479    23038455.149          11.500  
  -1500334.038    -1169091.310    21652681.437    21652685.469          12.500  
   -838138.583     -653095.567    21214007.917    21214011.714          12.250  
   -958323.011     -746747.026    25293329.307    25293336.809          10.750  
   -849592.481     -662021.005    20467910.855    20467913.859          12.750  
 12  1  1  0 15 30.0000000  0  9G 1G 2G 5G 9G12G18G21G28G29
   2230899.745     1738360.880    21783142.502    21783147.219          12.250  
   2230879.816     1738346.357    21783107.892    21783112.227          12.250  
  -2962426.791    -2308382.665    23336878.436    23336884.165          11.250  
   3045125.200     2372820.269    23464214.827    23464222.180          11.250  
   2762107.837     2152287.986    23055621.081    23055627.618          11.500  
  -1548910.609    -1206943.188    21643437.743    21643441.578          12.250  
   -857312.268     -668036.113    21210359.593    21210363.462          12.500  
   -983741.515     -766553.738    25288493.760    25288499.289          10.500  
   -870454.157     -678276.872    20463941.040    20463943.872          12.500  
 12  1  1  0 16  0.0000000  0  9G 1G 2G 5G 9G12G18G21G28G29
   2306176.394     1797017.931    21797467.093    21797471.824          12.250  
   2306155.924     1797002.952    21797432.672    21797436.626          12.250  
  -3054479.456    -2380111.948    23319361.860    23319366.620          11.750  
   3145472.042     2451012.446    23483310.459    23483317.450          10.750  
   2852409.887     2222653.085    23072805.406    23072811.916          11.500  
  -1597389.247    -1244718.727    21634213.050    21634216.265          12.250  
   -875907.773     -682526.129    21206820.840    21206824.532          12.750  
  -1008733.814     -786028.291    25283737.724    25283744.004          10.500  
   -890816.900     -694143.960    20460066.299    20460068.789          12.500  
 12  1  1  0 16 30.0000000  0  9G 1G 2G 5G 9G12G18G21G28G29
   2381637.135     1855818.419    21811827.068    21811831.631          12.250  
   2381616.099     1855803.010    21811792.281    21811796.422          12.250  
  -3146300.089    -2451660.420    23301888.814    23301894.410          11.000  
   3245912.875     2529277.872    23502423.787    23502430.695          11.250  
   2942771.282     2293064.404    23090000.451    23090006.592          11.500  
  -1645769.371    -1282417.517    21625006.222    21625009.700          12.500  
   -893924.111     -696564.832    21203392.151    21203396.038          12.750  
  -1033299.605     -805170.487    25279063.723    25279069.403          10.500  
   -910679.157     -709621.076    20456286.666    20456289.221          12.500  
 12  1  1  0 17  0.0000000  0  9G 1G 2G 5G 9G12G18G21G28G29
   2457279.947     1914760.780    21826221.848    21826226.113          12.000  
   2457258.367     1914744.944    21826186.559    21826190.964          12.250  
  -3237887.573    -2523027.241    23284460.219    23284465.741          11.000  
   3346444.240     2607613.832    23521554.628    23521561.768          11.500  
   3033190.695     2363520.932    23107207.140    23107212.980          11.250  
  -1694050.409    -1320039.110    21615818.802    21615821.915          12.500  
   -911360.310     -710151.487    21200074.233    21200078.168          12.500  
  -1057438.481     -823980.037    25274470.170    25274475.538          11.000  
   -930039.446     -724707.023    20452602.353    20452605.399          12.250  
 12  1  1  0 17 30.0000000  0  9G 1G 2G 5G 9G12G18G21G28G29
   2533102.795     1973843.428    21840650.583    21840654.868          12.000  
   2533080.664     1973827.183    21840615.300    21840619.754          12.000  
  -3329240.845    -2594211.567    23267076.276    23267081.717          11.250  
   3447062.699     2686017.651    23540701.971    23540708.964          11.250  
   3123666.698     2434021.606    23124424.136    23124429.942          11.250  
  -1742231.749    -1357583.011    21606649.949    21606653.567          12.500  
   -928215.434     -723285.367    21196866.979    21196870.695          12.500  
  -1081150.129     -842456.755    25269958.053    25269963.794          10.500  
   -948896.229     -739400.641    20449013.839    20449017.001          12.250  
 12  1  1  0 18  0.0000000  0  9G 1G 2G 5G 9G12G18G21G28G29
   2609103.670     2033064.812    21855112.758    21855117.482          12.000  
   2609080.982     2033048.129    21855077.563    21855082.058          12.000  
  -3420358.844    -2665212.544    23249737.212    23249742.643          11.500  
   3547764.815     2764486.663    23559865.325    23559872.500          11.250  
   3214198.039     2504565.361    23141651.315    23141657.474          11.250  
  -1790312.848    -1395048.812    21597500.370    21597504.057          12.500  
   -944488.574     -735965.763    21193770.320    21193774.007          12.500  
  -1104434.347     -860600.312    25265526.653    25265534.706          10.250  
   -967248.033     -753700.757    20445521.785    20445524.724          12.500  
 12  1  1  0 18 30.0000000  0  9G 1G 2G 5G 9G12G18G21G28G29
   2685280.544     2092423.335    21869608.763    21869613.434          12.000  
   2685257.319     2092406.231    21869573.462    21869577.655          12.000  
  -3511240.479    -2736029.358    23232442.817    23232447.897          11.500  
   3648547.216     2843018.205    23579043.511    23579051.200          10.750  
   3304783.305     2575151.167    23158889.816    23158895.273          11.500  
  -1838293.098    -1432436.017    21588370.390    21588373.645          12.500  
   -960178.841     -748191.941    21190784.635    21190788.361          12.500  
  -1127290.802     -878410.519    25261177.731    25261183.703          10.250  
   -985093.381     -767606.245    20442125.932    20442128.968          12.500  
 12  1  1  0 19  0.0000000  0  9G 1G 2G 5G 9G12G18G21G28G29
   2761631.434     2151917.448    21884138.000    21884142.376          12.000  
   2761607.662     2151899.915    21884102.345    21884107.088          12.000  
  -3601884.713    -2806661.176    23215193.973    23215198.731          11.500  
   3749406.424     2921609.630    23598236.859    23598243.890          11.000  
   3395421.251     2645777.987    23176137.910    23176143.507          11.250  
  -1886171.882    -1469744.165    21579259.382    21579262.511          12.500  
   -975285.360     -759963.265    21187910.032    21187913.899          12.500  
  -1149719.160     -895887.279    25256910.599    25256915.994           9.500  
  -1002430.834     -781115.965    20438826.853    20438829.663          12.500  
 12  1  1  0 19 30.0000000  0  9G 1G 2G 5G 9G12G18G21G28G29
   2838154.318     2211545.564    21898700.297    21898704.158          12.000  
   2838130.027     2211527.637    21898664.526    21898668.900          12.000  
  -3692290.497    -2877107.182    23197990.131    23197994.877          11.500  
   3850339.042     3000258.208    23617444.029    23617450.500          11.000  
   3486110.538     2716444.837    23193395.649    23193401.593          11.500  
  -1933948.584    -1506972.762    21570167.949    21570171.038          12.250  
   -989807.316     -771279.093    21185146.880    21185150.390          12.250  
  -1171719.327     -913030.324    25252723.331    25252729.357          10.750  
  -1019258.960     -794228.801    20435624.587    20435627.170          12.500  
 12  1  1  0 20  0.0000000  0  9G 1G 2G 5G 9G12G18G21G28G29
   2914847.200     2271306.174    21913294.555    21913298.564          12.000  
   2914822.386     2271287.814    21913258.806    21913263.145          12.000  
  -3782456.772    -2947366.539    23180831.873    23180836.753          11.500  
   3951341.640     3078961.352    23636663.409    23636670.903          11.000  
   3576849.857     2787150.666    23210662.545    23210668.660          11.750  
  -1981622.601    -1544121.347    21561095.652    21561099.339          12.500  
  -1003743.892     -782138.767    21182494.505    21182498.645          12.500  
  -1193291.087     -929839.483    25248618.118    25248625.289          10.250  
  -1035576.287     -806943.645    20432519.444    20432522.214          12.500  
 12  1  1  0 20 30.0000000  0  9G 1G 2G 5G 9G12G18G21G28G29
   2991708.114     2331197.701    21927920.778    21927924.901          12.000  
   2991682.772     2331178.922    21927884.859    21927889.311          12.250  
  -3872382.519    -3017438.484    23163719.216    23163724.645          11.250  
   4052410.794     3157716.371    23655896.819    23655904.491          11.250  
   3667637.942     2857894.467    23227938.799    23227945.353          12.250  
  -2029193.288    -1581189.428    21552043.095    21552046.740          12.500  
  -1017094.287     -792541.670    21179953.697    21179957.814          12.250  
  -1214434.115     -946314.589    25244594.802    25244602.604          10.500  
  -1051381.496     -819259.400    20429511.986    20429514.498          12.500  
 12  1  1  0 21  0.0000000  0  9G 1G 2G 5G 9G12G18G21G28G29
   3068735.078     2391218.627    21942578.416    21942582.686          12.000  
   3068709.193     2391199.446    21942542.604    21942547.100          12.250  
  -3962066.606    -3087322.182    23146652.606    23146658.226          11.250  
   4153543.205     3236520.654    23675141.162    23675148.886          11.250  
   3758473.482     2928675.243    23245224.222    23245231.047          12.000  
  -2076660.023    -1618176.491    21543010.506    21543014.084          12.500  
  -1029857.752     -802487.252    21177524.856    21177529.052          12.250  
  -1235148.273     -962455.548    25240652.518    25240659.569          10.250  
  -1066673.166     -831175.015    20426601.994    20426604.715          12.500  
 12  1  1  0 21 30.0000000  0  9G 1G 2G 5G 9G12G18G21G28G29
   3145926.105     2451367.374    21957267.604    21957272.054          12.000  
   3145899.706     2451347.813    21957231.382    21957235.909          12.000  
  -4051508.192    -3157016.866    23129632.269    23129638.085          11.250  
   4254735.334     3315371.516    23694398.329    23694405.857          11.250  
   3849355.154     2999492.009    23262519.262    23262525.317          11.500  
  -2124022.157    -1655082.044    21533997.733    21534001.443          12.250  
  -1042033.557     -811974.911    21175207.932    21175211.963          12.500  
  -1255433.436     -978262.224    25236792.721    25236798.800          10.250  
  -1081449.946     -842689.403    20423789.879    20423793.026          12.750  
 12  1  1  0 22  0.0000000  0  9G 1G 2G 5G 9G12G18G21G28G29
   3223279.226     2511642.456    21971987.202    21971991.610          12.000  
   3223252.338     2511622.488    21971951.168    21971955.406          12.000  
  -4140706.114    -3226521.709    23112658.896    23112664.307          11.000  
   4355983.915     3394266.327    23713665.394    23713672.557          11.000  
   3940281.764     3070343.756    23279822.556    23279828.576          11.500  
  -2171279.010    -1691905.575    21525005.082    21525008.687          12.250  
  -1053620.979     -821004.095    21173003.182    21173006.957          12.500  
  -1275289.382     -993734.498    25233014.312    25233020.641          10.750  
  -1095710.468     -853801.525    20421076.257    20421079.394          12.500  
 12  1  1  0 22 30.0000000  0  9G 1G 2G 5G 9G12G18G21G28G29
   3300792.502     2572042.319    21986737.827    21986742.016          12.250  
   3300765.107     2572021.953    21986700.972    21986705.765          12.000  
  -4229659.475    -3295835.946    23095731.761    23095736.880          11.750  
   4457285.585     3473202.477    23732943.129    23732949.953          10.750  
   4031252.001     3141229.528    23297133.404    23297139.285          11.000  
  -2218429.947    -1728646.564    21516032.641    21516036.297          12.250  
  -1064619.362     -829574.271    21170910.408    21170914.007          12.500  
  -1294716.055    -1008872.217    25229317.544    25229324.488          11.000  
  -1109453.438     -864510.352    20418461.149    20418464.118          12.750  
 12  1  1  0 23  0.0000000  0  9G 1G 2G 5G 9G12G18G21G28G29
   3378464.000     2632565.462    22001518.121    22001522.930          12.000  
   3378436.099     2632544.698    22001481.499    22001486.156          12.000  
  -4318367.228    -3364958.802    23078851.147    23078856.056          11.750  
   4558636.899     3552177.353    23752229.196    23752236.636          11.500  
   4122264.651     3212148.309    23314452.343    23314458.535          11.000  
  -2265474.317    -1765304.500    21507080.327    21507083.865          12.500  
  -1075028.026     -837684.943    21168929.618    21168933.370          12.000  
  -1313713.351    -1023675.319    25225702.293    25225708.412          10.750  
  -1122677.526     -874814.862    20415944.577    20415947.506          12.250  
 12  1  1  0 23 30.0000000  0  9G 1G 2G 5G 9G12G18G21G28G29
   3456291.752     2693210.352    22016328.215    22016332.650          12.000  
   3456263.321     2693189.210    22016291.781    22016296.185          12.000  
  -4406828.377    -3433889.482    23062017.373    23062022.766          11.750  
   4660034.534     3631188.289    23771524.545    23771532.293          11.250  
   4213318.442     3283099.188    23331779.616    23331785.807          11.500  
  -2312411.414    -1801878.863    21498148.685    21498151.871          12.500  
  -1084846.346     -845335.607    21167061.399    21167064.940          12.250  
  -1332281.140    -1038143.767    25222169.473    25222175.201          10.750  
  -1135381.456     -884714.053    20413527.131    20413530.091          12.500  
 12  1  1  0 24  0.0000000  0  9G 1G 2G 5G 9G12G18G21G28G29
   3534273.796     2753975.492    22031168.008    22031171.960          12.000  
   3534244.887     2753953.972    22031131.343    22031135.803          12.000  
  -4495041.912    -3502627.295    23045231.022    23045235.902          11.250  
   4761475.104     3710232.700    23790827.922    23790836.120          11.000  
   4304412.187     3354081.195    23349114.241    23349120.375          11.500  
  -2359240.561    -1838369.115    21489237.671    21489240.515          12.250  
  -1094073.747     -852525.772    21165305.917    21165308.918          12.250  
  -1350419.329    -1052277.399    25218717.878    25218723.362          10.250  
  -1147563.951     -894206.925    20411208.754    20411212.089          12.500  
 12  1  1  0 24 30.0000000  0  9G 1G 2G 5G 9G12G18G21G28G29
   3612408.243     2814859.380    22046036.290    22046040.332          12.000  
   3612378.838     2814837.481    22045999.796    22046004.076          12.000  
  -4583006.907    -3571171.401    23028491.722    23028497.047          11.500  
   4862955.317     3789307.989    23810139.324    23810147.448          11.250  
   4395544.634     3425093.297    23366456.351    23366462.462          11.500  
  -2405961.074    -1874774.695    21480346.873    21480350.002          12.250  
  -1102709.628     -859255.041    21163662.300    21163665.561          12.500  
  -1368127.860    -1066076.338    25215347.069    25215354.256          10.250  
  -1159223.775     -903292.508    20408990.232    20408993.234          12.250  
 12  1  1  0 25  0.0000000  0  9G 1G 2G 5G 9G12G18G21G28G29
   3690693.160     2875860.523    22060933.618    22060937.588          12.000  
   3690663.275     2875838.209    22060896.931    22060900.958          12.250  
  -4670722.414    -3639521.096    23011799.564    23011805.043          11.250  
   4964471.729     3868411.545    23829457.475    23829465.695          11.000  
   4486714.543     3496134.668    23383804.976    23383811.978          11.500  
  -2452572.259    -1911095.102    21471477.171    21471480.344          12.250  
  -1110753.419     -865522.944    21162131.860    21162135.024          12.500  
  -1385406.750    -1079540.490    25212060.474    25212066.755          10.500  
  -1170359.672     -911969.854    20406871.049    20406873.958          12.750  
 12  1  1  0 25 30.0000000  0  9G 1G 2G 5G 9G12G18G21G28G29
   3769126.602     2936977.411    22075859.018    22075863.358          12.250  
   3769096.241     2936954.730    22075822.149    22075826.462          12.250  
  -4758187.423    -3707675.612    22995155.536    22995161.635          11.250  
   5066021.108     3947540.752    23848782.214    23848790.241          11.250  
   4577920.726     3567204.275    23401160.833    23401168.025          12.000  
  -2499073.392    -1947329.748    21462627.927    21462631.280          12.250  
  -1118204.602     -871329.086    21160713.799    21160717.276          12.500  
  -1402255.830    -1092669.735    25208854.086    25208860.536          10.500  
  -1180970.455     -920238.012    20404851.800    20404854.969          12.500  
 12  1  1  0 26  0.0000000  0  9G 1G 2G 5G 9G12G18G21G28G29
   3847706.717     2998208.554    22090812.244    22090816.981          12.250  
   3847675.899     2998185.521    22090775.588    22090780.297          12.250  
  -4845401.016    -3775634.203    22978559.650    22978565.455          11.750  
   5167600.103     4026692.997    23868111.966    23868119.842          10.750  
   4669162.000     3638301.226    23418524.138    23418530.708          11.500  
  -2545463.763    -1983478.114    21453799.780    21453803.736          12.250  
  -1125062.719     -876673.064    21159408.726    21159412.256          12.500  
  -1418675.324    -1105464.169    25205729.297    25205736.773          10.750  
  -1191054.921     -928096.043    20402933.162    20402935.962          12.500  
 12  1  1  0 26 30.0000000  0  9G 1G 2G 5G 9G12G18G21G28G29
   3926431.585     3059552.532    22105793.164    22105798.000          12.500  
   3926400.267     3059529.111    22105756.381    22105761.107          12.000  
  -4932362.245    -3843396.153    22962011.513    22962017.008          11.250  
   5269205.374     4105865.764    23887447.250    23887454.621          10.500  
   4760437.168     3709424.598    23435893.585    23435899.897          11.750  
  -2591742.696    -2019539.590    21444993.012    21444997.314          12.250  
  -1131327.252     -881554.535    21158216.325    21158220.399          12.500  
  -1434665.131    -1117923.755    25202687.431    25202693.194          11.000  
  -1200611.886     -935543.046    20401114.496    20401117.515          12.500  
 12  1  1  0 27  0.0000000  0  9G 1G 2G 5G 9G12G18G21G28G29
   4005299.297     3121007.797    22120801.457    22120805.940          12.250  
   4005267.504     3120984.004    22120764.597    22120768.818          12.250  
  -5019070.218    -3910960.726    22945511.089    22945516.723          11.250  
   5370833.607     4185056.386    23906786.081    23906793.635          11.250  
   4851745.037     3780573.423    23453269.281    23453275.009          11.750  
  -2637909.407    -2055513.637    21436208.023    21436212.197          12.250  
  -1136997.770     -885973.147    21157137.661    21157141.220          12.500  
  -1450225.314    -1130048.603    25199725.909    25199731.734          10.750  
  -1209640.190     -942578.124    20399396.282    20399399.517          12.750  
 12  1  1  0 27 30.0000000  0  9G 1G 2G 5G 9G12G18G21G28G29
   4084307.987     3182572.902    22135836.272    22135840.835          12.250  
   4084275.731     3182548.767    22135799.265    22135803.867          12.250  
  -5105523.920    -3978327.203    22929059.731    22929065.001          11.500  
   5472481.520     4264262.327    23926129.701    23926136.988          11.000  
   4943084.485     3851746.858    23470650.636    23470656.615          11.250  
  -2683963.164    -2091399.689    21427444.579    21427448.348          12.250  
  -1142073.866     -889928.568    21156171.575    21156175.318          12.500  
  -1465355.853    -1141838.691    25196846.703    25196853.837          11.000  
  -1218138.728     -949200.387    20397778.795    20397782.160          12.500  
 12  1  1  0 28  0.0000000  0  9G 1G 2G 5G 9G12G18G21G28G29
   4163455.774     3244246.400    22150897.443    22150902.613          12.250  
   4163423.067     3244221.904    22150860.803    22150864.916          12.250  
  -5191722.496    -4045494.900    22912656.775    22912662.140          11.500  
   5574145.783     4343481.072    23945475.531    23945483.578          11.250  
   5034454.253     3922943.934    23488037.472    23488043.956          11.500  
  -2729903.233    -2127197.160    21418702.605    21418706.041          12.000  
  -1146555.125     -893420.479    21155318.785    21155322.365          12.500  
  -1480056.818    -1153294.075    25194049.839    25194056.004          10.750  
  -1226106.375     -955408.968    20396262.802    20396265.905          12.750  
 12  1  1  0 28 30.0000000  0  9G 1G 2G 5G 9G12G18G21G28G29
   4242740.803     3306026.835    22165985.018    22165990.373          12.000  
   4242707.624     3306001.991    22165948.356    22165952.822          12.250  
  -5277665.027    -4112463.049    22896302.172    22896308.108          12.000  
   5675823.127     4422709.989    23964824.313    23964831.874          11.000  
   5125853.315     3994163.828    23505430.206    23505436.749          11.250  
  -2775728.857    -2162905.444    21409982.488    21409985.573          12.250  
  -1150441.191     -896448.610    21154579.154    21154582.832          12.250  
  -1494328.404    -1164414.852    25191333.787    25191339.862          11.000  
  -1233542.038     -961203.027    20394847.847    20394851.147          13.000  
 12  1  1  0 29  0.0000000  0  9G 1G 2G 5G 9G12G18G21G28G29
   4322161.210     3367912.772    22181098.594    22181103.687          12.000  
   4322127.547     3367887.568    22181061.389    22181065.851          12.250  
  -5363350.604    -4179230.990    22879996.783    22880002.496          11.750  
   5777510.297     4501946.518    23984174.516    23984182.498          11.250  
   5217280.447     4065405.606    23522828.120    23522835.413          11.500  
  -2821439.308    -2198523.971    21401284.024    21401287.143          12.000  
  -1153731.756     -899012.698    21153953.173    21153956.719          12.250  
  -1508170.696    -1175201.055    25188698.961    25188705.254          11.250  
  -1240444.652     -966581.702    20393534.329    20393537.431          12.750  
 12  1  1  0 29 30.0000000  0  9G 1G 2G 5G 9G12G18G21G28G29
   4401715.112     3429902.736    22196237.403    22196242.405          12.250  
   4401681.031     3429877.169    22196200.087    22196204.368          12.250  
  -5448778.376    -4245798.039    22863741.019    22863745.997          11.250  
   5879203.993     4581188.166    24003526.892    24003534.522          10.750  
   5308734.520     4136668.376    23540231.590    23540238.756          11.750  
  -2867033.754    -2234052.124    21392607.717    21392610.877          12.250  
  -1156426.455     -901112.486    21153440.262    21153443.961          12.250  
  -1521583.741    -1185652.878    25186146.377    25186153.070          10.750  
  -1246813.155     -971544.179    20392322.498    20392325.814          12.750  
 12  1  1  0 30  0.0000000  0  9G 1G 2G 5G 9G12G18G21G28G29
   4481400.723     3491995.305    22211401.072    22211405.805          12.250  
   4481366.160     3491969.401    22211363.540    22211368.017          12.250  
  -5533947.418    -4312163.483    22847533.750    22847538.708          11.500  
   5980900.958     4660432.356    24022879.225    24022887.342          10.500  
   5400214.414     4207951.240    23557639.141    23557646.952          11.250  
  -2912511.477    -2269489.298    21383953.364    21383956.654          12.250  
  -1158525.016     -902747.754    21153040.490    21153044.619          12.500  
  -1534567.644    -1195770.295    25183676.175    25183682.819          10.750  
  -1252646.522     -976089.683    20391212.520    20391215.739          12.750  
 12  1  1  0 30 30.0000000  0  9G 1G 2G 5G 9G12G18G21G28G29
   4561216.142     3554189.043    22226589.630    22226594.167          12.250  
   4561181.190     3554162.803    22226551.693    22226556.684          12.250  
  -5618856.856    -4378326.652    22831375.776    22831380.629          11.250  
   6082597.952     4739676.549    24042230.962    24042239.828          10.250  
   5491719.011     4279253.386    23575052.215    23575059.775          11.250  
  -2957871.661    -2304834.905    21375321.763    21375324.765          12.250  
  -1160027.185     -903918.311    21152754.690    21152758.792          12.250  
  -1547122.735    -1205553.480    25181288.059    25181293.186          11.000  
  -1257943.719     -980217.380    20390204.457    20390207.934          12.500  
 12  1  1  0 31  0.0000000  0  9G 1G 2G 5G 9G12G18G21G28G29
   4641159.589     3616482.545    22241802.497    22241807.093          12.250  
   4641124.206     3616455.957    22241764.076    22241768.943          12.250  
  -5703505.845    -4444286.851    22815267.148    22815272.320          11.000  
   6184291.665     4818918.207    24061583.158    24061591.402          10.250  
   5583247.223     4350573.902    23592469.937    23592477.025          11.500  
  -3003113.534    -2340088.316    21366712.438    21366715.772          12.500  
  -1160932.753     -904623.938    21152582.462    21152586.433          12.250  
  -1559249.093    -1215002.660    25178979.739    25178985.951          11.250  
  -1262703.772     -983926.542    20389298.945    20389302.142          12.750  
 12  1  1  0 31 30.0000000  0  9G 1G 2G 5G 9G12G18G21G28G29
   4721229.228     3678874.367    22257038.985    22257043.700          12.500  
   4721193.420     3678847.444    22257001.227    22257005.639          12.250  
  -5787893.545    -4510043.421    22799208.921    22799214.128          11.250  
   6285978.938     4898154.825    24080933.931    24080942.695          10.750  
   5674797.921     4421911.898    23609891.514    23609899.440          11.250  
  -3048236.297    -2375248.908    21358125.575    21358129.129          12.500  
  -1161241.461     -904864.530    21152523.999    21152527.949          12.000  
  -1570946.913    -1224117.926    25176753.191    25176760.849          11.000  
  -1266925.704     -987216.386    20388495.485    20388498.673          12.750  
 12  1  1  0 32  0.0000000  0  9G 1G 2G 5G 9G12G18G21G28G29
   4801423.267     3741363.108    22272299.860    22272304.279          12.250  
   4801387.019     3741335.867    22272261.454    22272265.987          12.500  
  -5872019.032    -4575595.707    22783199.967    22783205.370          11.750  
   6387656.462     4977383.886    24100282.487    24100290.321          11.250  
   5766369.970     4493266.624    23627317.682    23627323.968          11.250  
  -3093239.136    -2410316.047    21349562.007    21349565.412          12.750  
  -1160953.160     -904639.906    21152578.870    21152582.631          12.250  
  -1582216.427    -1232899.374    25174608.389    25174614.710          10.750  
  -1270608.580     -990086.186    20387794.817    20387797.757          12.750  
 12  1  1  0 32 30.0000000  0  9G 1G 2G 5G 9G12G18G21G28G29
   4881739.883     3803947.385    22287583.661    22287588.658          12.000  
   4881703.207     3803919.821    22287545.310    22287550.312          12.250  
  -5955881.507    -4640943.074    22767241.575    22767246.807          11.750  
   6489321.095     5056602.851    24119629.218    24119636.328          11.500  
   5857962.375     4564637.162    23644746.358    23644753.754          11.000  
  -3138121.222    -2445289.112    21341021.546    21341024.547          12.500  
  -1160067.714     -903949.949    21152747.719    21152750.849          12.250  
  -1593057.900    -1241347.291    25172545.722    25172552.208          11.000  
  -1273751.457     -992535.208    20387196.884    20387199.755          12.500  
 12  1  1  0 33  0.0000000  0  9G 1G 2G 5G 9G12G18G21G28G29
   4962177.274     3866625.774    22302890.132    22302895.422          12.000  
   4962140.158     3866597.884    22302852.440    22302856.862          12.250  
  -6039480.158    -4706084.827    22751333.530    22751338.213          11.500  
   6590969.575     5135809.271    24138971.873    24138980.617          11.000  
   5949574.041     4636022.683    23662180.457    23662186.872          11.250  
  -3182881.733    -2480167.448    21332503.912    21332507.065          12.500  
  -1158584.962     -902794.566    21153029.632    21153033.374          12.500  
  -1603471.559    -1249461.881    25170564.915    25170571.796          10.750  
  -1276353.438     -994562.753    20386701.577    20386704.626          12.750  
 12  1  1  0 33 30.0000000  0  9G 1G 2G 5G 9G12G18G21G28G29
   5042733.675     3929396.885    22318219.541    22318224.990          12.250  
   5042696.144     3929368.658    22318181.725    22318186.354          12.000  
  -6122814.125    -4771020.351    22735475.767    22735480.849          11.500  
   6692598.718     5215000.572    24158311.873    24158319.664          10.750  
   6041203.879     4707422.388    23679617.092    23679623.901          11.250  
  -3227519.877    -2514950.407    21324009.591    21324012.855          12.500  
  -1156504.788     -901173.688    21153425.439    21153429.086          12.250  
  -1613457.645    -1257243.310    25168664.251    25168671.066          11.000  
  -1278413.646     -996168.148    20386309.563    20386312.471          12.500  
 12  1  1  0 34  0.0000000  0  9G 1G 2G 5G 9G12G18G21G28G29
   5123407.285     3992259.343    22333571.303    22333576.568          12.250  
   5123369.358     3992230.776    22333533.254    22333538.060          12.000  
  -6205882.651    -4835749.023    22719667.623    22719673.350          11.750  
   6794205.311     5294174.357    24177646.977    24177654.790          11.000  
   6132850.801     4778835.431    23697056.791    23697063.517          11.000  
  -3272034.794    -2549637.350    21315538.486    21315542.299          12.500  
  -1153827.164     -899087.247    21153935.239    21153938.788          12.500  
  -1623016.425    -1264691.803    25166845.497    25166851.699          10.250  
  -1279931.207     -997350.680    20386020.554    20386023.737          12.500  
 12  1  1  0 34 30.0000000  0  9G 1G 2G 5G 9G12G18G21G28G29
   5204196.368     4055211.758    22348944.904    22348950.466          12.250  
   5204158.032     4055182.886    22348906.842    22348911.619          12.000  
  -6288684.837    -4900270.164    22703911.264    22703916.473          11.750  
   6895786.173     5373328.040    24196977.110    24196985.010          11.000  
   6224513.850     4850260.999    23714499.883    23714507.208          11.250  
  -3316425.632    -2584227.622    21307091.113    21307094.744          12.250  
  -1150552.020     -896535.191    21154558.132    21154562.043          12.500  
  -1632148.214    -1271807.603    25165108.651    25165114.731          11.000  
  -1280905.280     -998109.711    20385834.971    20385838.550          12.500  
 12  1  1  0 35  0.0000000  0  9G 1G 2G 5G 9G12G18G21G28G29
   5285099.124     4118252.753    22364340.332    22364345.784          12.250  
   5285060.390     4118223.569    22364302.330    22364307.185          12.000  
  -6371219.956    -4964583.205    22688205.225    22688210.848          11.250  
   6997338.098     5452459.204    24216301.560    24216310.493          10.750  
   6316191.855     4921698.278    23731945.299    23731952.787          11.500  
  -3360691.552    -2618720.543    21298667.325    21298671.244          12.250  
  -1146679.295     -893517.525    21155295.153    21155299.585          12.500  
  -1640853.447    -1278590.940    25163450.848    25163458.653          11.000  
  -1281335.051     -998444.619    20385753.460    20385756.589          12.750  
 12  1  1  0 35 30.0000000  0  9G 1G 2G 5G 9G12G18G21G28G29
   5366113.828     4181381.000    22379757.267    22379761.923          12.000  
   5366074.684     4181351.481    22379719.388    22379723.805          12.000  
  -6453487.195    -5028687.485    22672550.055    22672555.501          11.750  
   7098857.956     5531565.378    24235620.675    24235629.431          10.750  
   6407883.912     4993146.474    23749393.319    23749401.211          11.250  
  -3404831.692    -2653115.457    21290267.841    21290271.658          12.250  
  -1142209.052     -890034.253    21156146.096    21156150.243          12.500  
  -1649132.474    -1285042.141    25161875.871    25161883.529          11.500  
  -1281219.702     -998354.760    20385775.596    20385778.626          12.500  
 12  1  1  0 36  0.0000000  0 10G 1G 2G 5G 9G11G12G18G21G28G29
   5447238.693     4244595.074    22395194.805    22395200.104          12.000  
   5447199.173     4244565.264    22395156.456    22395161.449          12.000  
  -6535485.776    -5092582.457    22656946.410    22656951.743          12.000  
   7200342.587     5610644.117    24254932.829    24254941.113          10.750  
         0.447           0.234    25198611.040    25198619.475          11.250  
   6499588.932     5064604.756    23766844.919    23766852.248          11.250  
  -3448845.182    -2687411.686    21281891.941    21281895.927          12.250  
  -1137141.283     -886085.371    21157110.461    21157114.273          12.500  
  -1656985.482    -1291161.466    25160382.349    25160388.975          11.000  
  -1280558.474     -997839.537    20385901.557    20385904.455          12.500  
 12  1  1  0 36 30.0000000  0 10G 1G 2G 5G 9G11G12G18G21G28G29
   5528472.077     4307893.688    22410652.955    22410658.224          11.750  
   5528432.130     4307863.567    22410614.272    22410619.662          12.000  
  -6617214.915    -5156267.438    22641393.768    22641399.098          12.000  
   7301788.859     5689692.912    24274238.219    24274246.262          11.250  
   -117061.703      -91216.841    25176334.484    25176342.749           9.500  
